City_ID,City,Lat,Lng,Max Temp,Humidity,Cloudiness,Wind Speed,Country,Date
0,longyearbyen,78.2186,15.6401,48.04,57,75,11.5,SJ,1690725992
1,nadym,65.5333,72.5167,66.2,64,35,15.55,RU,1690725993
2,port elizabeth,-33.918,25.5701,56.1,62,20,26.46,ZA,1690725993
3,mariental,-24.6333,17.9667,57.47,20,0,9.35,NA,1690725993
4,port alfred,-33.5906,26.891,58.17,65,70,10.0,ZA,1690725994
5,bilibino,68.0546,166.4372,41.13,94,100,2.48,RU,1690725994
6,ariguani,10.25,-74.0,86.79,53,100,1.86,CO,1690725995
7,merizo village,13.2658,144.6691,81.99,96,53,2.48,GU,1690725996
8,ilulissat,69.2167,-51.1,44.62,87,75,4.61,GL,1690725996
9,lompoc,34.6391,-120.4579,55.54,100,100,3.44,US,1690725997
10,olonkinbyen,70.9221,-8.7187,43.11,86,100,2.95,SJ,1690725997
11,ushuaia,-54.8,-68.3,33.46,64,40,14.97,AR,1690725886
12,revda,56.801,59.9303,77.29,49,5,6.78,RU,1690725998
13,port-aux-francais,-49.35,70.2167,35.04,72,51,36.98,TF,1690725998
14,grytviken,-54.2811,-36.5092,34.65,99,99,11.16,GS,1690725998
15,wailua homesteads,22.0669,-159.378,77.79,89,100,12.66,US,1690725999
16,west island,-12.1568,96.8225,76.98,78,75,21.85,CC,1690725999
17,hoima,1.4356,31.3436,81.84,48,91,3.09,UG,1690725999
18,coquimbo,-29.9533,-71.3436,53.33,87,100,2.3,CL,1690725999
19,qaqortoq,60.7167,-46.0333,46.35,74,78,5.28,GL,1690726000
20,alice springs,-23.7,133.8833,60.35,82,74,5.75,AU,1690726000
21,nuuk,64.1835,-51.7216,45.21,81,75,8.05,GL,1690726001
22,udachny,66.4167,112.4,67.37,43,17,13.6,RU,1690726001
23,la passe,45.5549,-0.8967,75.43,52,95,11.92,FR,1690726001
24,trujillo,-8.116,-79.03,71.56,78,100,4.61,PE,1690725882
25,presidente medici,-11.1753,-61.9014,88.41,28,13,5.3,BR,1690725723
26,saynshand,44.8824,110.1163,91.67,18,0,9.28,MN,1690726002
27,iqaluit,63.7506,-68.5145,40.01,88,79,5.28,CA,1690726003
28,hermanus,-34.4187,19.2345,52.72,79,100,25.97,ZA,1690726003
29,kulhudhuffushi,6.6221,73.07,83.37,74,10,12.68,MV,1690725981
30,center,31.5107,-96.4247,87.8,61,0,4.61,US,1690725581
31,bathsheba,13.2167,-59.5167,84.81,89,40,10.36,BB,1690726004
32,walvis bay,-22.9575,14.5053,62.1,46,0,25.88,NA,1690726004
33,jiangyou,31.7667,104.7167,79.39,80,92,3.49,CN,1690726004
34,hammerfest,70.6634,23.6821,52.25,100,75,8.05,NO,1690726005
35,adamstown,-25.066,-130.1015,66.06,56,90,21.77,PN,1690726005
36,ribeira grande,38.5167,-28.7,77.4,88,40,11.01,PT,1690726005
37,mukalla,14.5425,49.1242,92.1,53,7,17.76,YE,1690726006
38,puerto natales,-51.7236,-72.4875,34.34,71,25,10.49,CL,1690726006
39,kavieng,-2.5744,150.7967,81.25,81,100,7.27,PG,1690726007
40,aasiaat,68.7098,-52.8699,34.83,94,100,4.16,GL,1690726007
41,vilyuysk,63.7553,121.6247,58.78,50,0,4.63,RU,1690726007
42,port blair,11.6667,92.75,84.24,84,75,16.11,IN,1690726008
43,chegdomyn,51.1167,133.0167,61.18,95,4,2.13,RU,1690726008
44,remire-montjoly,4.9167,-52.2667,86.04,66,75,5.75,GF,1690726008
45,bikenibeu village,1.3673,173.1241,82.36,83,75,8.05,KI,1690726009
46,edinburgh of the seven seas,-37.0676,-12.3116,59.09,81,100,31.18,SH,1690726009
47,touros,-5.1989,-35.4608,83.98,64,42,16.53,BR,1690725767
48,invercargill,-46.4,168.35,50.02,73,54,13.0,NZ,1690726010
49,waitangi,-43.9535,-176.5597,46.81,91,97,1.99,NZ,1690726010
50,blackmans bay,-43.0167,147.3167,47.73,63,12,18.16,AU,1690726010
51,papatowai,-46.5619,169.4708,46.24,79,8,7.67,NZ,1690726011
52,badger,64.8,-147.5333,61.52,87,100,5.75,US,1690725933
53,waspan,14.7419,-83.9717,80.92,89,78,5.57,NI,1690726011
54,hawaiian paradise park,19.5933,-154.9731,72.03,86,100,8.05,US,1690726012
55,hamilton,39.1834,-84.5333,82.44,70,0,5.75,US,1690726012
56,noumea,-22.2763,166.4572,66.99,99,54,7.07,NC,1690726012
57,gorontalo,0.5412,123.0595,75.07,91,95,3.98,ID,1690726012
58,bethel,41.3712,-73.414,71.2,63,0,12.66,US,1690726013
59,puerto baquerizo moreno,-0.9,-89.6,76.19,94,75,10.36,EC,1690726013
60,nikol'sk,53.7189,46.0712,60.87,95,100,12.77,RU,1690726014
61,alwar,27.5667,76.6,89.53,62,100,7.49,IN,1690725751
62,enewetak,11.3474,162.3373,82.02,79,100,14.94,MH,1690726014
63,suwayr,30.1171,40.3893,106.12,8,0,5.21,SA,1690726015
64,cortina d'ampezzo,46.5384,12.1377,74.89,70,93,3.04,IT,1690726015
65,punta arenas,-53.15,-70.9167,30.11,100,34,15.82,CL,1690725780
66,camargo,27.6667,-105.1667,76.87,43,100,5.44,MX,1690726016
67,kirensk,57.7853,108.1119,63.95,93,4,4.12,RU,1690726016
68,pihani,27.6333,80.2,89.28,60,98,4.25,IN,1690726016
69,yellowknife,62.456,-114.3525,60.57,100,0,5.01,CA,1690726017
70,hadibu,12.65,54.0333,80.13,76,33,19.55,YE,1690726018
71,quellon,-43.1167,-73.6167,49.8,86,92,10.58,CL,1690725733
72,guli,28.8833,120.0333,74.68,93,100,3.78,CN,1690726019
73,whitehorse,60.7161,-135.0538,55.81,82,40,4.61,CA,1690725860
74,nar'yan-mar,67.6713,53.087,84.63,52,11,13.82,RU,1690726020
75,nova sintra,14.8667,-24.7167,73.22,74,100,4.9,CV,1690726020
76,puerto ayora,-0.7393,-90.3518,80.56,90,55,4.0,EC,1690726021
77,talnakh,69.4865,88.3972,68.79,81,99,3.85,RU,1690726021
78,vilyuchinsk,52.9306,158.4028,55.67,95,100,2.15,RU,1690726021
79,san clemente del tuyu,-36.3569,-56.7235,53.98,77,100,14.67,AR,1690726022
80,noshiro,40.2039,140.0242,75.69,93,60,3.71,JP,1690726022
81,el nido,11.1858,119.3956,82.04,78,100,8.68,PH,1690726022
82,zaragoza,41.6561,-0.8773,90.45,36,0,10.36,ES,1690726023
83,porto novo,6.4965,2.6036,76.98,87,100,5.95,BJ,1690726023
84,weno,7.4515,151.8468,83.68,70,100,3.62,FM,1690726023
85,turpan,42.9333,89.1667,94.01,25,99,7.49,CN,1690726024
86,nagqu,31.5,92.0,49.82,74,100,5.91,CN,1690726024
87,utrik,11.2278,169.8474,82.4,81,98,18.68,MH,1690726025
88,kem',64.9555,34.5793,65.26,70,100,9.46,RU,1690726025
89,albany,42.6001,-73.9662,66.94,69,0,1.01,US,1690726025
90,sortavala,61.7053,30.6918,69.96,63,50,5.61,RU,1690726026
91,acapulco de juarez,16.8634,-99.8901,82.22,69,100,3.44,MX,1690726026
92,ixtapa,20.7,-105.2,83.23,89,0,4.61,MX,1690726026
93,xinzhou,38.4092,112.7333,69.49,98,100,3.87,CN,1690726027
94,fort stockton,30.894,-102.8793,81.16,46,0,6.91,US,1690726027
95,hilo,19.7297,-155.09,79.29,69,75,8.01,US,1690725159
96,timbuktu,16.7735,-3.0074,101.08,27,21,7.18,ML,1690726028
97,constantia,44.1833,28.65,86.7,54,4,17.58,RO,1690725730
98,new norfolk,-42.7826,147.0587,48.92,69,9,11.41,AU,1690726028
99,kruisfontein,-34.0033,24.7314,53.89,67,100,24.79,ZA,1690726028
100,itoman,26.1247,127.6694,84.22,79,75,12.66,JP,1690726029
101,launceston,-41.45,147.1667,46.8,80,9,14.97,AU,1690726029
102,darwin,-12.4611,130.8418,73.38,68,0,2.3,AU,1690725766
103,karratha,-20.7377,116.8463,71.64,25,55,7.87,AU,1690726030
104,brownwood,31.7093,-98.9912,87.8,48,0,4.61,US,1690726030
105,susuman,62.7833,148.1667,51.42,70,95,6.91,RU,1690726030
106,jamestown,42.097,-79.2353,71.02,69,0,6.91,US,1690725813
107,sitka,57.0531,-135.33,58.89,82,100,8.05,US,1690726031
108,honcho,35.6931,139.9833,88.02,70,29,16.93,JP,1690726031
109,newnham,-41.3833,147.1333,46.31,80,8,14.97,AU,1690726031
110,carnarvon,-24.8667,113.6333,65.07,56,0,13.18,AU,1690726032
111,los zacatones,22.95,-102.05,61.38,73,31,15.52,MX,1690726032
112,alofi,-19.0595,-169.9187,71.98,83,100,17.4,NU,1690726032
113,dudinka,69.4058,86.1778,65.43,79,57,11.03,RU,1690726033
114,panadura,6.7132,79.9026,79.99,83,49,8.79,LK,1690726033
115,trairi,-3.2778,-39.2689,88.39,50,6,15.14,BR,1690725748
116,pacific grove,36.6177,-121.9166,55.08,95,100,5.01,US,1690726034
117,margate,51.3813,1.3862,65.88,78,100,11.99,GB,1690726034
118,san fernando,15.0286,120.6898,78.53,91,100,3.96,PH,1690726034
119,mersa matruh,31.3525,27.2453,84.92,60,0,17.43,EG,1690726035
120,cestos city,5.46,-9.5828,80.22,77,100,9.78,LR,1690726035
121,cidreira,-30.1811,-50.2056,61.79,66,0,9.6,BR,1690726035
122,tazovsky,67.4667,78.7,62.1,80,99,8.01,RU,1690726036
123,kingsville,27.5159,-97.8561,87.76,75,0,5.99,US,1690726036
124,port mathurin,-19.6833,63.4167,74.05,70,0,19.55,MU,1690726036
125,mbarara,-0.608,30.65,84.74,29,91,5.1,UG,1690726037
126,nova vicosa,-17.8919,-39.3719,72.16,81,100,17.38,BR,1690725974
127,kodiak,57.79,-152.4072,56.71,72,100,9.22,US,1690726037
128,mamuju,-2.6748,118.8885,79.93,84,81,2.19,ID,1690726037
129,kingston,17.997,-76.7936,88.25,71,9,3.0,JM,1690726038
130,keflavik,64.0049,-22.5624,54.03,82,100,9.22,IS,1690726038
131,dhalie,13.6957,44.7314,81.05,52,98,8.39,YE,1690726038
132,bhimunipatnam,17.8833,83.4333,87.31,72,100,9.48,IN,1690726039
133,galveston,29.3669,-94.9669,88.18,83,0,3.44,US,1690726039
134,georgetown,5.4112,100.3354,87.73,70,20,8.05,MY,1690726040
135,puerto deseado,-47.7503,-65.8938,42.21,60,8,4.85,AR,1690726041
136,flying fish cove,-10.4217,105.6791,74.88,83,75,16.11,CX,1690726041
137,margaret river,-33.95,115.0667,57.52,78,100,6.55,AU,1690726042
138,port-cartier,50.0334,-66.8654,68.76,61,98,3.87,CA,1690726042
139,shilovo,54.3204,40.874,68.88,70,94,11.21,RU,1690726042
140,iskateley,67.6803,53.1512,84.56,52,11,13.56,RU,1690726043
141,santa maria del oro,25.9333,-105.3667,68.38,53,43,0.87,MX,1690726043
142,broome,42.2506,-75.833,68.63,69,75,12.66,US,1690726043
143,primero de mayo,-32.2552,-58.4228,59.56,58,51,7.85,AR,1690726044
144,hami,42.8,93.45,85.64,28,100,15.03,CN,1690726044
145,sogndal,61.2283,7.1003,59.38,94,100,12.66,NO,1690726044
146,arkalyk,50.2486,66.9114,83.53,33,0,12.19,KZ,1690726045
147,juneau,58.3019,-134.4197,61.21,95,75,0.0,US,1690725505
148,mount pearl,47.5166,-52.7813,61.14,100,100,9.22,CA,1690726045
149,kodinsk,58.6881,99.1844,62.47,98,100,7.94,RU,1690726046
150,sandpoint,48.2766,-116.5533,71.71,63,0,1.01,US,1690725908
151,island harbour,50.724,-1.2758,66.15,90,100,10.0,GB,1690726046
152,yatou,37.15,122.3833,76.12,95,49,10.25,CN,1690726047
153,taoudenni,22.6783,-3.9836,114.78,10,79,1.23,ML,1690726047
154,myrina,39.8797,25.0742,88.84,33,0,8.05,GR,1690726048
155,tiksi,71.6872,128.8694,35.62,93,96,8.16,RU,1690726048
156,belmonte,-15.8631,-38.8828,74.32,81,100,7.14,BR,1690726049
157,es castell,39.8795,4.2854,83.08,78,75,9.22,ES,1690726049
158,geraldton,-28.7667,114.6,52.21,93,0,5.75,AU,1690726049
159,vorgashor,67.5833,63.95,73.76,53,29,3.38,RU,1690726049
160,blenheim,-41.516,173.9528,38.52,87,0,1.01,NZ,1690726050
161,kavaratti,10.5669,72.642,82.71,77,4,14.72,IN,1690726050
162,forest,37.3638,-79.2897,82.8,69,0,4.61,US,1690726051
163,zhatay,62.1594,129.8294,62.06,77,20,1.99,RU,1690726051
164,crane,31.3974,-102.3501,80.47,40,6,11.63,US,1690726051
165,balaipungut,1.05,101.2833,76.35,94,62,3.27,ID,1690726052
166,ternate,0.8,127.4,80.96,81,88,5.08,ID,1690726052
167,olyokminsk,60.3736,120.4264,64.27,59,100,2.13,RU,1690726052
168,quepos,9.4236,-84.1652,82.44,79,100,2.04,CR,1690726053
169,namibe,-15.1961,12.1522,70.27,57,12,8.7,AO,1690726053
170,kununurra,-15.7667,128.7333,69.78,73,30,1.14,AU,1690726053
171,kapuskasing,49.4169,-82.4331,59.09,82,75,8.05,CA,1690725976
172,mili,6.0815,171.735,83.21,76,100,7.96,MH,1690726054
173,la rinconada,37.4873,-5.9826,103.12,29,0,8.05,ES,1690726054
174,east london,-33.0153,27.9116,61.74,41,0,26.46,ZA,1690725894
175,tura,25.5198,90.2201,79.0,88,17,2.68,IN,1690726055
176,afaahiti,-17.75,-149.2833,75.06,77,91,20.0,PF,1690726055
177,vila velha,-20.3297,-40.2925,69.75,86,100,8.05,BR,1690726056
178,lautoka,-17.6167,177.4667,69.66,64,75,6.91,FJ,1690726056
179,peace river,56.2501,-117.286,60.66,90,20,3.44,CA,1690725774
180,luderitz,-26.6481,15.1594,61.12,42,0,25.21,NA,1690726057
181,lihue,21.9789,-159.3672,78.39,85,100,12.66,US,1690726057
182,sisimiut,66.9395,-53.6735,43.16,83,90,8.05,GL,1690726057
183,saint-philippe,-21.3585,55.7679,71.19,75,43,9.55,RE,1690726057
184,caleta de carquin,-11.0925,-77.6267,68.45,75,33,7.78,PE,1690726058
185,labrador city,52.9463,-66.9114,54.32,66,95,1.43,CA,1690726058
186,bredasdorp,-34.5322,20.0403,51.96,71,100,23.85,ZA,1690726058
187,yunfu,22.9306,112.0373,79.75,92,100,3.53,CN,1690726059
188,grants,35.1473,-107.8514,64.63,68,0,0.0,US,1690726059
189,saldanha,-33.0117,17.9442,55.31,66,100,13.87,ZA,1690726059
190,atafu village,-8.5421,-172.5159,82.96,71,5,16.75,TK,1690726060
191,tarinkot,32.6268,65.8733,95.59,13,72,11.56,AF,1690726060
192,buka,40.8108,69.1986,97.92,9,0,8.19,UZ,1690726060
193,ponta delgada,37.7333,-25.6667,75.92,83,20,14.97,PT,1690726061
194,kavalerovo,44.2661,135.0572,71.04,88,100,4.7,RU,1690726061
195,ivankiv,50.9386,29.8943,72.95,68,100,3.85,UA,1690726061
196,sinabang,2.4803,96.3801,80.55,81,99,4.52,ID,1690726062
197,bonga,7.2833,36.2333,70.32,95,96,2.44,ET,1690726062
198,codrington,-38.2667,141.9667,45.84,86,0,13.22,AU,1690726064
199,breaux bridge,30.2735,-91.8993,89.04,77,0,9.22,US,1690726064
200,klyuchi,52.2667,79.1667,76.95,48,74,8.37,RU,1690726064
201,arteche,12.2645,125.4048,80.1,81,96,9.1,PH,1690726065
202,tazacorte,28.629,-17.9293,79.77,77,0,13.8,ES,1690726065
203,dogonbadan,30.3586,50.7981,101.17,12,10,15.93,IR,1690726066
204,st. john's,47.5649,-52.7093,61.99,100,100,9.22,CA,1690725918
205,rizokarpaso,35.6,34.375,83.21,68,0,12.35,CY,1690726066
206,souillac,-20.5167,57.5167,73.78,64,40,5.75,MU,1690726067
207,nieuw nickerie,5.95,-56.9833,84.18,69,24,5.88,SR,1690726067
208,aberdeen,57.1437,-2.0981,71.55,60,40,8.05,GB,1690725770
209,johi,26.6921,67.6133,87.91,56,87,6.15,PK,1690726068
210,bahia de caraquez,-0.6,-80.4167,80.78,82,100,2.28,EC,1690726068
211,usogorsk,63.4106,48.6872,87.1,46,9,7.61,RU,1690726069
212,santa ana de yacuma,-13.75,-65.4333,78.75,61,53,5.75,BO,1690726069
213,selfoss,63.9331,-20.9971,60.04,87,100,4.88,IS,1690726069
214,sur,22.5667,59.5289,95.68,53,1,1.88,OM,1690726070
215,igrim,63.1906,64.4162,75.16,49,49,6.24,RU,1690726070
216,cheremukhovo,60.3484,59.9851,77.29,52,5,2.24,RU,1690726071
217,murashi,59.3999,48.9615,83.3,52,77,10.13,RU,1690726071
218,hakui,36.8833,136.7833,83.25,79,13,2.77,JP,1690726071
219,kone,-21.0595,164.8658,62.15,84,9,3.71,NC,1690726072
220,ardakan,32.31,54.0175,104.38,11,0,13.56,IR,1690726072
221,koh kong,11.6175,102.9806,80.65,86,100,8.16,KH,1690726072
222,chudovo,59.1167,31.6833,76.93,36,39,5.03,RU,1690726073
223,ola,59.5833,151.2833,51.33,96,100,2.46,RU,1690726073
224,tralee,52.2704,-9.7026,64.65,94,100,11.5,IE,1690726073
225,saipan,15.1355,145.701,81.3,83,20,3.44,MP,1690726074
226,rikaze,29.25,88.8833,69.19,40,100,3.83,CN,1690726074
227,bamboo flat,11.7,92.7167,84.29,84,75,16.11,IN,1690726074
228,ketchikan,55.3422,-131.6461,61.27,82,100,4.61,US,1690726074
229,lata,40.1629,-8.3327,84.49,43,0,12.48,PT,1690726075
230,salina cruz,16.1667,-95.2,82.09,73,100,14.76,MX,1690726075
231,rio grande,-32.035,-52.0986,59.95,76,16,4.97,BR,1690725804
232,aykhal,66.0,111.5,65.44,46,3,5.91,RU,1690726076
233,bodri,23.1667,81.4333,80.51,80,59,7.0,IN,1690726076
234,harstad,68.799,16.5293,64.81,100,21,1.01,NO,1690726076
235,guerrero negro,27.9769,-114.0611,70.03,78,51,4.52,MX,1690726077
236,bhadrachalam,17.6667,80.8833,79.77,89,100,4.03,IN,1690726077
237,okhotsk,59.3833,143.3,55.45,93,100,8.48,RU,1690726077
238,serchhip,23.3,92.8333,71.01,98,86,2.17,IN,1690726077
239,opuwo,-18.0607,13.84,82.31,10,0,4.0,NA,1690726078
240,howard springs,-12.497,131.047,73.31,70,100,1.57,AU,1690726079
241,al mayadin,35.0209,40.4535,104.29,8,0,13.76,SY,1690726079
242,'alaqahdari dishu,30.4374,63.313,107.83,8,0,14.18,AF,1690726079
243,college,64.8569,-147.8028,61.59,87,75,5.75,US,1690726053
244,mostaganem,35.9311,0.0892,84.22,60,89,9.6,DZ,1690726021
245,bel ombre,-4.6167,55.4167,78.4,80,92,7.81,SC,1690726080
246,forster,-32.1667,152.5167,57.29,87,72,5.06,AU,1690726080
247,sindgi,16.9167,76.2333,79.11,71,100,17.9,IN,1690726081
248,drayton valley,53.2168,-114.9854,53.4,89,8,4.12,CA,1690725860
249,tocopilla,-22.092,-70.1979,69.44,60,0,5.91,CL,1690725826
250,marrakesh,31.6315,-8.0083,100.47,30,20,4.61,MA,1690726082
251,debark',13.1561,37.8981,57.69,77,88,2.44,ET,1690726082
252,inayauan,9.9005,122.434,81.23,80,94,11.45,PH,1690726082
253,quiberon,47.4841,-3.1196,69.21,78,23,15.55,FR,1690726083
254,laojunmiao,39.8333,97.7333,71.58,35,100,12.97,CN,1690726033
255,mata-utu,-13.2816,-176.1745,79.11,82,92,10.76,WF,1690726084
256,thompson,55.7435,-97.8558,67.48,57,22,4.5,CA,1690726084
257,stanley,54.868,-1.6985,64.89,65,75,20.71,GB,1690725454
258,praia,14.9215,-23.5087,84.74,65,75,8.05,CV,1690726084
259,vila franca do campo,37.7167,-25.4333,75.61,59,2,4.92,PT,1690726085
260,sangmelima,2.9333,11.9833,78.87,76,100,2.57,CM,1690726085
261,carutapera,-1.195,-46.02,85.73,63,0,9.48,BR,1690726086
262,aljezur,37.3191,-8.8033,78.08,52,3,14.76,PT,1690726086
263,kralendijk,12.15,-68.2667,87.78,74,75,16.11,BQ,1690726087
264,enterprise,36.0252,-115.2419,90.14,26,75,5.75,US,1690726087
265,mizdah,31.4451,12.9801,113.16,7,15,23.04,LY,1690726088
266,khandyga,62.6667,135.6,52.72,49,3,3.87,RU,1690726088
267,hithadhoo,-0.6,73.0833,82.15,74,100,4.56,MV,1690726089
268,tolanaro,-25.0319,46.9987,72.81,73,5,14.09,MG,1690726089
269,dapa,9.7594,126.0531,83.23,77,100,5.99,PH,1690726089
270,certaldo,43.547,11.0402,90.01,60,0,18.28,IT,1690726090
271,quelimane,-17.8786,36.8883,86.92,37,0,11.5,MZ,1690725907
272,bouna,9.2667,-3.0,86.0,58,100,3.6,CI,1690726090
273,kargasok,59.0556,80.8572,72.1,66,78,4.94,RU,1690726091
274,huarmey,-10.0681,-78.1522,69.64,75,38,6.15,PE,1690726091
275,san gabriel,34.0961,-118.1058,78.8,87,0,0.0,US,1690726091
276,serdar,38.9764,56.2757,102.85,18,0,11.21,TM,1690726092
277,kushiro,42.975,144.3747,72.37,85,99,10.56,JP,1690726092
278,mikhaylovskoye,51.8239,79.7172,77.72,45,12,9.37,RU,1690726092
279,moranbah,-22.0016,148.0466,59.92,84,27,8.59,AU,1690726092
280,ad dabbah,18.05,30.95,111.07,10,1,11.12,SD,1690726093
281,valparaiso,-33.0393,-71.6273,66.43,64,0,4.61,CL,1690726093
282,haiku-pauwela,20.9219,-156.3051,75.04,72,0,9.22,US,1690726094
283,colonia,50.9333,6.95,73.96,58,20,17.27,DE,1690726067
284,piti village,13.4626,144.6933,82.31,90,0,0.0,GU,1690726094
285,amursk,50.2261,136.8994,63.05,95,69,6.51,RU,1690726095
286,tempio pausania,40.8974,9.1035,92.32,37,12,10.49,IT,1690726095
287,el bolson,-41.9667,-71.5167,44.74,93,100,7.87,AR,1690726095
288,murun-kuren,49.6342,100.1625,62.17,89,100,5.17,MN,1690726096
289,kunyang,27.6658,120.5658,75.16,92,100,3.15,CN,1690726096
290,zakopane,49.299,19.9489,64.83,100,100,5.99,PL,1690726096
291,gadzhiyevo,69.2551,33.3362,57.29,83,99,5.59,RU,1690726097
292,watampone,-4.5386,120.3279,76.21,89,100,7.94,ID,1690726097
293,helong,42.5397,128.9972,70.5,95,100,5.32,CN,1690726097
294,san jose del guaviare,2.5729,-72.6459,77.58,82,82,6.96,CO,1690726098
295,auki,-8.7676,160.7034,75.07,96,100,4.07,SB,1690726098
296,san pedro pochutla,15.7333,-96.4667,75.7,86,100,2.93,MX,1690726098
297,punta cardon,11.6581,-70.215,83.77,73,32,22.95,VE,1690726099
298,manokwari,-0.8667,134.0833,80.87,70,94,4.72,ID,1690726099
299,anadyr,64.75,177.4833,54.1,87,75,15.01,RU,1690726099
300,adilcevaz,38.8039,42.7342,82.24,29,0,10.94,TR,1690726100
301,champerico,14.3,-91.9167,81.54,73,95,1.61,GT,1690726100
302,den burg,53.0542,4.7972,67.98,71,20,25.32,NL,1690726100
303,tarauaca,-8.1614,-70.7656,84.36,47,14,3.74,BR,1690726101
304,hola,51.5377,23.1902,77.18,43,100,10.29,PL,1690726101
305,scottburgh,-30.2867,30.7532,67.19,48,1,23.82,ZA,1690726101
306,shimanovsk,52.0,127.7,67.98,73,47,6.06,RU,1690726102
307,sovetskiy,61.3614,63.5842,77.65,40,0,6.58,RU,1690726102
308,mar del plata,-38.0023,-57.5575,57.09,79,0,14.97,AR,1690725829
309,mount gambier,-37.8333,140.7667,50.94,74,3,11.52,AU,1690725840
310,naze,28.3667,129.4833,77.99,85,100,17.16,JP,1690726103
311,general acha,-37.377,-64.6043,63.32,44,100,6.67,AR,1690726103
312,sarmiento,-45.5882,-69.07,47.84,57,0,30.82,AR,1690726104
313,lebu,-37.6167,-73.65,54.88,88,100,3.74,CL,1690726104
314,luau,-10.7073,22.2247,93.83,10,1,3.65,AO,1690726104
315,severoural'sk,60.1533,59.952,77.05,50,4,3.36,RU,1690726105
316,labytnangi,66.6572,66.4183,74.7,52,15,4.45,RU,1690726105
317,pulsano,40.3821,17.3564,92.19,49,0,5.01,IT,1690726105
318,isafjordur,66.0755,-23.124,53.64,71,75,8.05,IS,1690726106
319,linxia chengguanzhen,35.6003,103.2064,68.67,51,17,3.98,CN,1690726106
320,safford,32.834,-109.7076,88.11,36,0,8.05,US,1690726106
321,westport,41.1415,-73.3579,73.42,60,0,8.05,US,1690726107
322,kaltungo,9.8142,11.3089,90.36,45,45,6.33,NG,1690726107
323,ilgin,38.2792,31.9139,85.28,20,0,6.22,TR,1690726107
324,brisas de zicatela,15.8369,-97.0419,81.12,78,100,4.61,MX,1690726108
325,san luis de la loma,17.2706,-100.8939,84.15,67,65,2.21,MX,1690726108
326,chibougamau,49.9168,-74.3659,55.02,94,75,5.75,CA,1690726108
327,el porvenir,13.7617,-87.3458,76.33,65,87,4.18,HN,1690726108
328,emmett,43.8735,-116.4993,79.36,19,3,3.96,US,1690725861
329,mirny,62.5353,113.9611,61.68,65,100,6.58,RU,1690726109
330,nizip,37.0097,37.7942,100.53,14,0,15.68,TR,1690726111
331,avarua,-21.2078,-159.775,73.45,94,75,2.3,CK,1690726111
332,arraial do cabo,-22.9661,-42.0278,67.86,77,75,4.61,BR,1690726111
333,kaa-khem,51.6833,94.7333,73.4,41,0,5.53,RU,1690726112
334,as sulayyil,20.4607,45.5779,111.47,7,6,1.99,SA,1690726112
335,pasni,25.2631,63.471,82.87,84,7,14.41,PK,1690726112
336,al qanayat,30.6188,31.461,100.35,20,0,17.65,EG,1690726113
337,mahina,-17.5065,-149.489,76.75,73,20,4.61,PF,1690726113
338,madang,-5.2246,145.7966,78.1,88,100,3.67,PG,1690726113
339,shahin dezh,36.6793,46.5669,93.76,18,95,4.0,IR,1690726114
340,fale old settlement,-9.3852,-171.2468,82.36,76,93,11.61,TK,1690726114
341,faya-largeau,17.9257,19.1043,111.36,9,0,13.73,TD,1690726114
342,sungai penuh,-2.0833,101.3833,67.44,99,94,1.32,ID,1690726115
343,san carlos del zulia,9.0,-71.9135,87.67,61,60,6.24,VE,1690726115
344,qinzhou,21.95,108.6167,83.62,80,32,7.96,CN,1690726115
345,beypazari,40.1675,31.9211,88.56,16,0,5.86,TR,1690726116
346,plastun,44.7561,136.2939,72.37,82,100,6.2,RU,1690726116
347,haverfordwest,51.8017,-4.9691,62.19,95,100,5.01,GB,1690726116
348,el jadid,33.2549,-8.506,76.57,72,0,15.08,MA,1690726117
349,aleksandrovskoye,44.7142,43.0008,82.09,38,16,7.76,RU,1690726117
350,newman,37.3138,-121.0208,68.29,62,98,1.01,US,1690726117
351,dolisie,-4.1997,12.6739,89.62,36,22,6.64,CG,1690726118
352,whitburn,54.9533,-1.3686,68.09,61,43,20.02,GB,1690726118
353,aztec,36.8222,-107.9929,75.92,54,67,7.49,US,1690726118
354,lakhipur,26.0299,90.3041,83.5,83,23,3.49,IN,1690726119
355,ulanhot,46.0833,122.0833,75.29,64,12,4.25,CN,1690726037
356,kabwe,-14.4469,28.4464,87.12,12,14,5.64,ZM,1690726119
357,san antonio de pale,-1.4014,5.6325,72.66,81,96,11.95,GQ,1690726120
358,cockburn town,21.4612,-71.1419,83.53,80,99,16.15,TC,1690726120
359,tiznit,29.5833,-9.5,99.14,19,2,10.54,MA,1690726120
360,keminmaa,65.8596,24.8228,62.37,88,40,12.66,FI,1690726120
361,noormarkku,61.5927,21.8685,73.18,53,0,5.75,FI,1690726121
362,tabou,4.423,-7.3528,79.9,76,97,10.09,CI,1690726121
363,natal,-5.795,-35.2094,77.65,94,75,10.36,BR,1690726121
364,eldoret,0.5204,35.2699,66.56,74,97,6.85,KE,1690726122
365,dubbo,-32.25,148.6167,55.53,100,100,5.75,AU,1690726122
366,lianhe,47.1333,129.2667,67.51,91,5,3.18,CN,1690726122
367,kuvshinovo,57.0295,34.1725,72.9,40,22,5.95,RU,1690726123
368,coahuayana de hidalgo,18.7,-103.6583,83.17,71,54,2.98,MX,1690726123
369,sao jose da coroa grande,-8.8978,-35.1478,80.51,69,14,9.98,BR,1690726123
370,llanes,43.4198,-4.7549,70.81,76,42,7.67,ES,1690726124
371,saint-francois,46.4154,3.9054,71.67,46,0,10.36,FR,1690726124
372,kudahuvadhoo,2.6708,72.8944,83.43,72,79,7.38,MV,1690726124
373,petrovsk-zabaykal'skiy,51.273,108.843,71.78,69,56,3.27,RU,1690726124
374,al fuwayliq,26.4432,43.2534,108.7,6,0,6.17,SA,1690726125
375,pisco,-13.7,-76.2167,66.25,77,100,6.91,PE,1690726125
376,altamont,42.2068,-121.7372,54.79,85,0,0.0,US,1690726125
377,dunedin,-45.8742,170.5036,43.81,85,3,5.5,NZ,1690726126
378,kolobrzeg,54.1757,15.5834,78.15,74,55,8.7,PL,1690726126
379,shilka,51.85,116.0333,77.45,44,100,3.96,RU,1690726126
380,sinop,41.7711,34.8709,70.93,63,4,7.81,TR,1690726126
381,rabaul,-4.1967,152.1721,78.64,83,100,4.05,PG,1690726127
382,mazatlan,23.2167,-106.4167,86.02,87,5,3.0,MX,1690725606
383,zhumadian,32.9794,114.0294,80.06,90,84,7.29,CN,1690726128
384,sarupathar,26.1984,93.8094,81.46,92,5,1.77,IN,1690726128
385,antsiranana,-12.2787,49.2917,78.03,69,4,18.16,MG,1690726128
386,fernie,49.5,-115.0687,67.96,49,0,1.86,CA,1690726128
387,ulladulla,-35.35,150.4667,58.86,52,0,9.93,AU,1690726129
388,brookings,44.3114,-96.7984,68.45,73,20,6.91,US,1690726129
389,nepalgunj,28.05,81.6167,88.11,75,31,3.56,NP,1690726129
390,kiunga,-6.1219,141.2906,73.06,99,100,1.14,PG,1690726130
391,bandar abbas,27.1865,56.2808,96.78,59,5,9.22,IR,1690726130
392,narara,-33.4,151.35,62.74,82,2,6.42,AU,1690726131
393,leer,53.2316,7.461,69.94,80,82,16.67,DE,1690726131
394,ceerigaabo,10.6162,47.368,76.05,45,89,24.32,SO,1690726131
395,sanjwal,33.7608,72.4336,94.21,46,0,3.49,PK,1690726132
396,petauke,-14.2426,31.3253,85.77,16,5,2.17,ZM,1690726133
397,barcelona,41.3888,2.159,91.81,64,20,11.5,ES,1690726087
398,mochudi,-24.4167,26.15,62.06,15,0,12.93,BW,1690726134
399,villa gesell,-37.2639,-56.973,52.05,72,100,16.82,AR,1690726134
400,sylvan lake,52.3168,-114.0853,56.35,77,0,11.5,CA,1690725908
401,kharan,28.5833,65.4167,103.69,11,1,5.82,PK,1690726135
402,chonchi,-42.6128,-73.8092,51.12,86,92,5.08,CL,1690726135
403,bereket,39.2446,55.5154,102.34,20,13,4.9,TM,1690726136
404,kongolo,-5.3833,27.0,99.16,16,49,5.55,CD,1690726136
405,reggane,26.7158,0.1714,118.92,4,20,11.61,DZ,1690726136
406,igarka,67.4667,86.5833,73.31,67,21,3.49,RU,1690726137
407,veraval,20.9,70.3667,81.03,86,65,19.95,IN,1690726137
408,copiapo,-27.3667,-70.3333,53.29,30,0,1.79,CL,1690726137
409,carnot,4.9409,15.8665,84.07,68,55,3.04,CF,1690726138
410,daru,-9.0763,143.2092,76.87,85,72,17.18,PG,1690726138
411,maceio,-9.6658,-35.7353,83.64,65,75,11.5,BR,1690726138
412,hasaki,35.7333,140.8333,82.31,87,1,15.03,JP,1690726138
413,khanty-mansiysk,61.0042,69.0019,71.71,60,0,2.24,RU,1690726139
414,paredon,16.0333,-93.8667,82.69,74,87,4.9,MX,1690726139
415,derzhavinsk,51.1,66.3167,82.56,34,0,10.6,KZ,1690726139
416,kansk,56.2017,95.7175,67.28,74,76,6.29,RU,1690726140
417,hede,33.7681,120.2517,79.09,93,42,12.77,CN,1690726140
418,mananara,-16.1667,49.7667,72.91,76,75,7.29,MG,1690726140
419,thunder bay,48.4001,-89.3168,62.01,62,53,9.26,CA,1690726014
420,dazhong,33.1997,120.4578,79.79,89,68,14.05,CN,1690726141
421,zapala,-38.8992,-70.0544,53.08,56,74,7.02,AR,1690726141
422,port isabel,26.0734,-97.2086,87.84,79,20,4.61,US,1690726023
423,el calafate,-50.3408,-72.2768,30.96,79,9,5.28,AR,1690726142
424,uturoa,-16.7333,-151.4333,79.68,69,100,17.07,PF,1690726142
425,sechura,-5.5569,-80.8222,72.7,72,55,12.06,PE,1690726143
426,petropavlovsk-kamchatsky,53.0452,158.6483,54.19,100,75,4.47,RU,1690726143
427,cassilandia,-19.1133,-51.7342,79.68,43,0,9.17,BR,1690726143
428,orapa,-21.2833,25.3667,67.26,14,0,14.41,BW,1690726144
429,zaozersk,69.4005,32.4476,60.58,77,91,3.62,RU,1690726144
430,north battleford,52.7834,-108.2847,62.4,50,1,10.18,CA,1690726144
431,andirin,37.5776,36.3549,83.77,40,1,12.15,TR,1690726145
432,loiza,18.4313,-65.8802,90.37,69,75,14.97,PR,1690726145
433,cidade velha,14.9167,-23.6167,84.67,65,75,8.05,CV,1690726146
434,princeville,45.7668,-61.2985,67.32,87,75,5.75,CA,1690726146
435,ulsteinvik,62.3432,5.8487,61.7,89,100,10.0,NO,1690726146
436,yangquan,37.8575,113.5633,70.74,99,100,3.85,CN,1690726147
437,paraiso,9.8383,-83.8656,72.95,91,100,3.69,CR,1690726144
438,ciudad acuna,29.3232,-100.9522,84.49,64,0,10.36,MX,1690726147
439,barah,13.7,30.3667,88.93,47,100,15.03,SD,1690726083
440,atherton,53.5237,-2.4935,66.47,66,100,8.99,GB,1690726085
441,vadso,70.0744,29.7487,56.28,87,75,9.22,NO,1690726148
442,muisne,0.6,-80.0333,78.6,81,96,9.98,EC,1690726148
443,krasnoslobodsk,48.7072,44.5714,84.02,28,0,15.66,RU,1690726149
444,dalhart,36.0595,-102.5133,78.48,57,0,4.61,US,1690726149
445,peniche,39.3558,-9.3811,80.29,74,0,15.79,PT,1690726149
446,xining,36.6167,101.7667,63.84,72,66,2.59,CN,1690726150
447,bafoulabe,13.8065,-10.8321,86.81,59,98,6.98,ML,1690726150
448,clarence town,-32.5833,151.7833,62.94,76,42,6.15,AU,1690726151
449,arawa,-6.2132,155.5367,75.78,97,100,2.06,PG,1690726151
450,mejit,10.2753,170.8646,82.49,82,100,19.82,MH,1690726151
451,klaksvik,62.2266,-6.589,56.32,91,48,7.83,FO,1690726152
452,sao lourenco do sul,-31.3653,-51.9783,58.06,71,9,5.32,BR,1690726071
453,misratah,32.3754,15.0925,90.54,55,16,13.94,LY,1690726153
454,arenapolis,-14.4503,-56.8461,88.74,34,8,4.25,BR,1690726153
455,ylivieska,64.0833,24.55,69.31,55,17,6.17,FI,1690726153
456,dedza,-14.3779,34.3332,73.33,29,35,0.92,MW,1690726154
457,ancud,-41.8697,-73.8203,51.08,90,100,10.96,CL,1690726154
458,flin flon,54.7682,-101.865,66.38,60,0,4.76,CA,1690726154
459,longboat key,27.4125,-82.659,91.26,38,0,1.39,US,1690726155
460,san patricio,28.017,-97.5169,89.87,68,4,5.23,US,1690726155
461,esquipulas,14.5667,-89.35,75.61,95,99,5.57,GT,1690726155
462,oranjemund,-28.55,16.4333,55.49,60,0,13.0,NA,1690726156
463,mindelo,16.8901,-24.9804,83.75,65,75,16.11,CV,1690726156
464,port saint john's,-31.6229,29.5448,66.33,34,2,23.31,ZA,1690726156
465,alo,7.4178,6.7371,82.13,82,100,4.72,NG,1690726157
466,nsanje,-16.92,35.262,93.78,18,53,2.28,MW,1690726157
467,jiuquan,39.7432,98.5174,84.63,23,100,21.83,CN,1690726157
468,yelizovo,53.1873,158.3805,55.54,100,75,4.47,RU,1690726157
469,tangalle,6.024,80.7911,87.96,78,5,15.52,LK,1690726158
470,papao,-17.75,-149.55,76.66,76,38,21.21,PF,1690726158
471,kantunilkin,21.0917,-87.45,87.73,61,96,3.65,MX,1690726159
472,cabo san lucas,22.8909,-109.9124,88.52,70,0,9.44,MX,1690726159
473,prince rupert,54.3161,-130.3201,57.29,100,100,5.75,CA,1690725954
474,nemuro,43.3236,145.575,68.16,87,95,12.91,JP,1690726160
475,kerikeri,-35.2268,173.9474,44.87,94,9,3.13,NZ,1690726161
476,tamandare,-8.7597,-35.1047,81.3,65,13,9.28,BR,1690726161
477,carire,-3.9506,-40.4733,93.04,34,5,7.02,BR,1690726162
478,pama,11.2497,0.7075,90.64,49,100,4.12,BF,1690726162
479,regina,50.4501,-104.6178,66.04,51,98,8.99,CA,1690726147
480,bhakkar,31.6253,71.0657,100.06,35,0,9.86,PK,1690726163
481,kyren,51.6828,102.1408,70.07,63,100,3.49,RU,1690726163
482,melo,-32.3667,-54.1833,56.75,67,60,6.69,UY,1690726038
483,akureyri,65.6835,-18.0878,53.53,82,75,8.05,IS,1690726003
484,moussoro,13.6408,16.4901,103.12,24,55,13.15,TD,1690726164
485,dhuusamarreeb,5.535,46.3861,87.33,44,83,21.85,SO,1690725992
486,tateyama,34.9833,139.8667,80.73,84,33,16.08,JP,1690726165
487,minas de marcona,-15.2119,-75.1103,61.9,64,10,7.81,PE,1690726165
488,katra,32.9833,74.95,80.4,71,32,2.06,IN,1690726165
489,west bay,19.3667,-81.4167,89.67,75,40,11.5,KY,1690726166
490,khilok,51.3674,110.4676,71.69,69,94,2.21,RU,1690726166
491,san juan de miraflores,-12.1629,-76.9635,68.16,83,64,7.43,PE,1690726166
492,carbonear,47.7332,-53.2148,62.44,99,100,8.39,CA,1690726167
493,adra,36.7496,-3.0206,102.38,54,0,3.98,ES,1690726167
494,funafuti,-8.5243,179.1942,83.34,69,98,13.98,TV,1690726168
495,mount isa,-20.7333,139.5,58.77,63,54,5.75,AU,1690726168
496,jinxiang,27.4327,120.6062,78.37,90,100,4.27,CN,1690726168
497,fort bragg,35.139,-79.006,86.2,69,100,8.05,US,1690726169
498,si satchanalai,17.5169,99.7598,79.05,78,100,7.49,TH,1690726169
499,amos,48.5669,-78.1162,53.58,93,100,5.37,CA,1690726169
500,tsiombe,-25.3,45.4833,74.41,49,25,9.75,MG,1690726170
501,filey,54.21,-0.2892,66.78,66,91,8.99,GB,1690726170
502,alesund,62.4723,6.1549,64.9,90,40,8.05,NO,1690725929
503,gobabis,-22.45,18.9667,59.4,18,0,12.5,NA,1690726171
504,czersk,53.7959,17.9765,78.46,57,74,9.48,PL,1690726171
505,sola,-13.8833,167.55,75.56,70,17,19.86,VU,1690726172
506,ust-nera,64.5667,143.2,50.18,87,100,6.58,RU,1690726172
507,kendari,-3.945,122.4989,74.84,92,100,3.83,ID,1690726172
508,cajaruro,-5.7364,-78.4256,77.11,69,76,2.77,PE,1690726173
509,perth,-31.9333,115.8333,57.33,94,40,9.22,AU,1690726173
510,gwaram,11.2764,9.8858,96.53,34,40,5.44,NG,1690726173
511,angra do heroismo,38.65,-27.2167,78.12,84,85,7.0,PT,1690726174
512,rakvere,59.3464,26.3558,74.25,38,98,3.44,EE,1690726174
513,fort-shevchenko,44.5086,50.263,79.83,51,65,11.21,KZ,1690726174
514,tocache,-8.1842,-76.5125,73.87,87,73,1.1,PE,1690726175
515,qashyr,53.0675,76.1036,74.64,55,97,7.14,KZ,1690726175
516,oyama,36.3,139.8,87.58,70,0,6.44,JP,1690726175
517,wagar,16.1525,36.2032,99.72,29,25,8.21,SD,1690726176
518,farasan,16.7022,42.1183,88.84,73,10,20.89,SA,1690726176
519,al fujairah city,25.1164,56.3414,97.21,53,44,1.45,AE,1690726176
520,karkira,36.9292,6.5856,90.46,55,17,7.43,DZ,1690726177
521,grand falls-windsor,48.9332,-55.6649,58.5,93,100,4.0,CA,1690726177
522,manaure,11.7751,-72.4445,87.28,62,36,20.07,CO,1690726177
523,kirakira,-10.4544,161.9205,76.77,88,100,9.26,SB,1690726178
524,al hazm,16.1641,44.7769,102.88,12,99,14.41,YE,1690726178
525,rancho palos verdes,33.7445,-118.387,71.55,93,47,3.0,US,1690726178
526,qorovulbozor,39.5006,64.7936,98.31,10,0,17.74,UZ,1690726179
527,buulobarde,3.8538,45.5674,85.66,48,83,23.53,SO,1690726179
528,payyannur,12.1,75.2,78.42,84,15,7.49,IN,1690726179
529,tirebolu,41.0069,38.8139,73.29,75,96,1.1,TR,1690726180
530,chilca,-12.5211,-76.7372,65.64,81,66,5.75,PE,1690726180
531,taro,-8.3862,115.28,71.6,93,93,3.24,ID,1690726180
532,kenai,60.5544,-151.2583,55.49,94,100,0.0,US,1690726181
533,tamanrasset,22.785,5.5228,98.51,8,0,16.11,DZ,1690726181
534,al kharj,24.155,47.3346,113.43,7,7,0.58,SA,1690726181
535,al jawf,29.5,38.75,103.73,10,0,2.59,SA,1690726182
536,linden,6.0,-58.3,87.91,60,38,4.63,GY,1690726182
537,happy valley-goose bay,53.3168,-60.3315,55.71,82,100,8.05,CA,1690726182
538,upington,-28.4478,21.2561,53.04,33,4,11.86,ZA,1690726183
539,felipe carrillo puerto,19.5833,-88.05,85.41,72,98,3.29,MX,1690726183
540,apolinario saravia,-24.4328,-63.9954,71.53,38,0,16.08,AR,1690726183
541,selebi-phikwe,-21.979,27.8498,69.24,13,1,14.94,BW,1690726184
542,glace bay,46.1969,-59.957,63.99,89,100,5.01,CA,1690726186
543,sandnessjoen,66.0217,12.6316,66.72,67,0,6.91,NO,1690726186
544,lazaro cardenas,17.9583,-102.2,82.63,79,100,4.09,MX,1690726186
545,adam,22.3756,57.5233,96.21,36,9,22.39,OM,1690726187
546,anloga,5.7947,0.8973,79.11,81,100,9.64,GH,1690726187
547,sao joao da barra,-21.6403,-41.0511,69.89,71,100,5.1,BR,1690725896
548,nuku'alofa,-21.1333,-175.2,62.94,88,20,5.75,TO,1690726188
549,cannonvale,-20.2833,148.7,69.19,84,55,13.09,AU,1690726188
550,cocachacra,-17.0883,-71.7575,68.23,69,45,4.32,PE,1690726188
551,bodo,67.28,14.405,67.95,68,20,10.36,NO,1690726189
552,namsos,64.4662,11.4957,67.91,64,87,6.91,NO,1690725934
553,bintulu,3.1667,113.0333,82.47,81,100,4.25,MY,1690726189
554,wakkanai,45.4094,141.6739,74.08,94,23,13.0,JP,1690726190
555,bengkulu,-3.8004,102.2655,77.68,88,100,9.06,ID,1690726190
556,goz beida,13.95,20.55,101.82,23,100,9.64,TD,1690726190
557,douentza,14.9951,-2.9517,98.51,31,16,6.93,ML,1690726191
558,baskale,38.0453,44.0172,79.7,12,3,15.17,TR,1690726191
559,aguililla,18.7333,-102.7333,71.87,77,17,1.36,MX,1690726192
560,floro,61.5996,5.0328,60.76,82,75,5.75,NO,1690726192
561,jayapura,-2.5333,140.7,78.19,88,96,3.27,ID,1690726192
562,prado,-17.3411,-39.2208,72.93,87,100,12.64,BR,1690726193
563,kurchatov,51.6601,35.6521,77.41,47,73,8.52,RU,1690726193
564,san andres,12.5847,-81.7006,86.02,79,40,17.27,CO,1690726193
565,azhikkal,11.9,75.3667,78.55,83,16,7.7,IN,1690726098
